{"type": "FeatureCollection", "features": [{"type": "Feature", "geometry": {"type": "Point", "coordinates": [106.709571, 10.79317]}, "properties": {"Address": "8 \u0110\u01b0\u1eddng Ng\u00f4 T\u1ea5t T\u1ed1", "name": "Black Coffee & Beer"}}, {"type": "Feature", "geometry": {"type": "Point", "coordinates": [106.7014091, 10.7904741]}, "properties": {"Address": "24 Nguy\u1ec5n \u0110\u00ecnh Chi\u1ec3u", "name": "The Hangout Grill & Beer"}}, {"type": "Feature", "geometry": {"type": "Point", "coordinates": [106.6964936, 10.7851346]}, "properties": {"Address": "43 Nguy\u1ec5n \u0110\u00ecnh Chi\u1ec3u", "name": "HOPS Beer Garden"}}, {"type": "Feature", "geometry": {"type": "Point", "coordinates": [106.7316218, 10.8032245]}, "properties": {"Address": "41 Xu\u00e2n Th\u1ee7y", "name": "Hell Bull BBQ & Beer"}}, {"type": "Feature", "geometry": {"type": "Point", "coordinates": [106.6981128, 10.7886429]}, "properties": {"Address": "159A \u0110\u01b0\u1eddng Nguy\u1ec5n V\u0103n Th\u1ee7", "name": "Belgo - Belgian Craft Beer Brewery"}}, {"type": "Feature", "geometry": {"type": "Point", "coordinates": [106.7053573, 10.7864497]}, "properties": {"Address": "11 Nguy\u1ec5n B\u1ec9nh Khi\u00eam", "name": "Vuvuzela Nguy\u1ec5n B\u1ec9nh Khi\u00eam"}}, {"type": "Feature", "geometry": {"type": "Point", "coordinates": [106.705037, 10.790472]}, "properties": {"Address": "1 D1, Bis Nguy\u1ec5n Th\u1ecb Minh Khai", "name": "Square Beer Garden"}}, {"type": "Feature", "geometry": {"type": "Point", "coordinates": [106.6952381, 10.7871031]}, "properties": {"Address": "61 Ph\u00f9ng Kh\u1eafc Khoan", "name": "Platinum Beers"}}, {"type": "Feature", "geometry": {"type": "Point", "coordinates": [106.705606, 10.794249]}, "properties": {"Address": "144/15B Phan V\u0103n H\u00e2n", "name": "Roadway Cafe & Beer"}}, {"type": "Feature", "geometry": {"type": "Point", "coordinates": [106.7105236, 10.7894811]}, "properties": {"Address": "Nguy\u1ec5n H\u1eefu C\u1ea3nh, H\u1ed3 Ch\u00ed Minh 19G", "name": "Shury's Craft beer Bar"}}, {"type": "Feature", "geometry": {"type": "Point", "coordinates": [106.709571, 10.79317]}, "properties": {"Address": "8 \u0110\u01b0\u1eddng Ng\u00f4 T\u1ea5t T\u1ed1", "name": "Black Coffee & Beer"}}, {"type": "Feature", "geometry": {"type": "Point", "coordinates": [106.7014091, 10.7904741]}, "properties": {"Address": "24 Nguy\u1ec5n \u0110\u00ecnh Chi\u1ec3u", "name": "The Hangout Grill & Beer"}}, {"type": "Feature", "geometry": {"type": "Point", "coordinates": [106.6964936, 10.7851346]}, "properties": {"Address": "43 Nguy\u1ec5n \u0110\u00ecnh Chi\u1ec3u", "name": "HOPS Beer Garden"}}, {"type": "Feature", "geometry": {"type": "Point", "coordinates": [106.7316218, 10.8032245]}, "properties": {"Address": "41 Xu\u00e2n Th\u1ee7y", "name": "Hell Bull BBQ & Beer"}}, {"type": "Feature", "geometry": {"type": "Point", "coordinates": [106.6981128, 10.7886429]}, "properties": {"Address": "159A \u0110\u01b0\u1eddng Nguy\u1ec5n V\u0103n Th\u1ee7", "name": "Belgo - Belgian Craft Beer Brewery"}}, {"type": "Feature", "geometry": {"type": "Point", "coordinates": [106.7053573, 10.7864497]}, "properties": {"Address": "11 Nguy\u1ec5n B\u1ec9nh Khi\u00eam", "name": "Vuvuzela Nguy\u1ec5n B\u1ec9nh Khi\u00eam"}}, {"type": "Feature", "geometry": {"type": "Point", "coordinates": [106.705037, 10.790472]}, "properties": {"Address": "1 D1, Bis Nguy\u1ec5n Th\u1ecb Minh Khai", "name": "Square Beer Garden"}}, {"type": "Feature", "geometry": {"type": "Point", "coordinates": [106.6952381, 10.7871031]}, "properties": {"Address": "61 Ph\u00f9ng Kh\u1eafc Khoan", "name": "Platinum Beers"}}, {"type": "Feature", "geometry": {"type": "Point", "coordinates": [106.705606, 10.794249]}, "properties": {"Address": "144/15B Phan V\u0103n H\u00e2n", "name": "Roadway Cafe & Beer"}}, {"type": "Feature", "geometry": {"type": "Point", "coordinates": [106.7105236, 10.7894811]}, "properties": {"Address": "Nguy\u1ec5n H\u1eefu C\u1ea3nh, H\u1ed3 Ch\u00ed Minh 19G", "name": "Shury's Craft beer Bar"}}]}